{
	"cities": [
		{
			"id": 0,
			"text": "Київ",
			"markerInfo": {
				"title": "Антикорупційний штаб Києва",
				"person": "Тетяна Кришкіна, керівник",
				"phone": "067-531-98-12",
				"address": "Київ, вул. Котова,134"
			},
			"markerOptions": {
				"position": {
					"lat": 50.4501,
					"lng": 30.523400000000038
				}
			}
		},
		{
			"id": 1,
			"text": "Авдіївка",
			"markerInfo": {
				"title": "Антикорупційний штаб Авдіївки",
				"person": "Влад Зелений, керівник",
				"phone": "063-212-72-65",
				"address": "Авдіївка, вул. Армійська, 42"
			},
			"markerOptions": {
				"position": {
					"lat": 48.136596,
					"lng": 37.74913349999997
				}
			}
		},
		{
			"id": 2,
			"text": "Алмазна",
			"markerInfo": {
				"title": "Антикорупційний штаб Алмазного",
				"person": "Іванна Пьострая, керівник",
				"phone": "067-113-98-75",
				"address": "Алмазна, вул. Петлюри, 5"
			},
			"markerOptions": {
				"position": {
					"lat": 49.848743,
					"lng": 23.981732999999963
				}
			}
		},
		{
			"id": 3,
			"text": "Алупка",
			"markerInfo": {
				"title": "Антикорупційний штаб Алупки",
				"person": "Євгенія Либідь, керівник",
				"phone": "063-215-56-78",
				"address": "Алупка, вул. Гоголя, 32"
			},
			"markerOptions": {
				"position": {
					"lat": 44.4209688,
					"lng": 34.04726849999997
				}
			}
		},
		{
			"id": 4,
			"text": "Алушта",
			"markerInfo": {
				"title": "Антикорупційний штаб Алушти",
				"person": "Ніна Українка, керівник",
				"phone": "067-738-45-98",
				"address": "Алушта, вул. Бальна, 98"
			},
			"markerOptions": {
				"position": {
					"lat": 44.67638300000001,
					"lng": 34.410049999999956
				}
			}
		},
		{
			"id": 5,
			"text": "Алчевськ",
			"markerInfo": {
				"title": "Антикорупційний штаб Алчевська",
				"person": "Олександр Білий, керівник",
				"phone": "067-632-45-98",
				"address": "Алчевськ, вул. Панденка, 34"
			},
			"markerOptions": {
				"position": {
					"lat": 48.47133929999999,
					"lng": 38.8134407
				}
			}
		},
		{
			"id": 6,
			"text": "Амвросіївка",
			"markerInfo": {
				"title": "Антикорупційний штаб Амвросіївки",
				"person": "Степан Бутько, керівник",
				"phone": "063-556-78-98",
				"address": "Амвросіївка, вул. Вишнева, 2"
			},
			"markerOptions": {
				"position": {
					"lat": 47.80180619999999,
					"lng": 38.488535400000046
				}
			}
		},
		{
			"id": 7,
			"text": "Дніпропетровськ",
			"markerInfo": {
				"title": "Антикорупційний штаб Дніпропетровська",
				"person": "Петро Петренко, керівник",
				"phone": "067-777-77-77",
				"address": "Дніпропетровськ, вул. Коцюбинського, 4"
			},
			"markerOptions": {
				"position": {
					"lat": 48.46471700000001,
					"lng": 35.04618299999993
				}
			}
		},
		{
			"id": 8,
			"text": "Одеса",
			"markerInfo": {
				"title": "Антикорупційний штаб Одеси",
				"person": "Анатолій Мить, керівник",
				"phone": "063-555-55-66",
				"address": "Одеса, вул. Мазепи, 23"
			},
			"markerOptions": {
				"position": {
					"lat": 46.482526,
					"lng": 30.723309500000028
				}
			}
		},
		{
			"id": 9,
			"text": "Львів",
			"markerInfo": {
				"title": "Антикорупційний штаб Львова",
				"person": "Семен Світлий, керівник",
				"phone": "067-333-11-45",
				"address": "Львів, вул. Вірності, 7"
			},
			"markerOptions": {
				"position": {
					"lat": 49.83968300000001,
					"lng": 24.029717000000005
				}
			}
		},
		{
			"id": 10,
			"text": "Івано-Франківськ",
			"markerInfo": {
				"title": "Антикорупційний штаб Івано-Франківська",
				"person": "Григорій Швидкий, керівник",
				"phone": "063-111-55-44",
				"address": "Франківськ, вул. Вернадського, 16"
			},
			"markerOptions": {
				"position": {
					"lat": 48.922633,
					"lng": 24.71111700000006
				}
			}
		},
		{
			"id": 11,
			"text": "Маріуполь",
			"markerInfo": {
				"title": "Антикорупційний штаб Маріуполя",
				"person": "Катерина Прудько, керівник",
				"phone": "067-222-33-13",
				"address": "Маріуполь, вул. Мирного, 8"
			},
			"markerOptions": {
				"position": {
					"lat": 47.8873638,
					"lng": 31.891496599999982
				}
			}
		},
		{
			"id": 12,
			"text": "Харків",
			"markerInfo": {
				"title": "Антикорупційний штаб Харкова",
				"person": "Ольга Моць, керівник",
				"phone": "063-245-34-54",
				"address": "Харків, вул. Сосніних, 7"
			},
			"markerOptions": {
				"position": {
					"lat": 49.9935,
					"lng": 36.230383000000074
				}
			}
		},
		{
			"id": 13,
			"text": "Черкаси",
			"markerInfo": {
				"title": "Антикорупційний штаб Черкас",
				"person": "Жанна Кривенька, керівник",
				"phone": "063-523-45-56",
				"address": "Черкаси, вул. Градська, 19"
			},
			"markerOptions": {
				"position": {
					"lat": 49.444433,
					"lng": 32.059766999999965
				}
			}
		},
		{
			"id": 14,
			"text": "Ужгород",
			"markerInfo": {
				"title": "Антикорупційний штаб Ужгорода",
				"person": "Іван Прямий, керівник",
				"phone": "067-312-34-45",
				"address": "Ужгород, вул. Шевченка, 38"
			},
			"markerOptions": {
				"position": {
					"lat": 48.6208,
					"lng": 22.287882999999965
				}
			}
		},
		{
			"id": 15,
			"text": "Житомир",
			"markerInfo": {
				"title": "Антикорупційний штаб Житомира",
				"person": "Ганна Весела, керівник",
				"phone": "063-556-89-37",
				"address": "Житомир, вул. Коцюбинського, 4"
			},
			"markerOptions": {
				"position": {
					"lat": 50.25465,
					"lng": 28.658667000000037
				}
			}
		},
		{
			"id": 16,
			"text": "Вінниця",
			"markerInfo": {
				"title": "Антикорупційний штаб Вінниці",
				"person": "Микита Островий, керівник",
				"phone": "067-333-09-89",
				"address": "Вінниця, вул. Жовтнева, 15"
			},
			"markerOptions": {
				"position": {
					"lat": 49.233083,
					"lng": 28.46821699999998
				}
			}
		},
		{
			"id": 17,
			"text": "Чернівці",
			"markerInfo": {
				"title": "Антикорупційний штаб Чернівців",
				"person": "Генадій Жабенко, керівник",
				"phone": "063-523-98-59",
				"address": "Чернівці, вул. Кленова, 11"
			},
			"markerOptions": {
				"position": {
					"lat": 48.2920787,
					"lng": 25.93583669999998
				}
			}
		},
		{
			"id": 18,
			"text": "Тернопіль",
			"markerInfo": {
				"title": "Антикорупційний штаб Тернополя",
				"person": "Неоніла Кушнір, керівник",
				"phone": "067-355-69-96",
				"address": "Тернопіль, вул. Васильківська, 15"
			},
			"markerOptions": {
				"position": {
					"lat": 49.553517,
					"lng": 25.594767000000047
				}
			}
		},
		{
			"id": 19,
			"text": "Херсон",
			"markerInfo": {
				"title": "Антикорупційний штаб Херсона",
				"person": "Василь Бевзь, керівник",
				"phone": "063-545-46-65",
				"address": "Херсон, вул. Нелінська, 7"
			},
			"markerOptions": {
				"position": {
					"lat": 46.635417,
					"lng": 32.61686699999996
				}
			}
		},
		{
			"id": 20,
			"text": "Полтава",
			"markerInfo": {
				"title": "Антикорупційний штаб Полтави",
				"person": "Дмитро Кнуть, керівник",
				"phone": "067-545-84-65",
				"address": "Полтава, вул. Житня, 34"
			},
			"markerOptions": {
				"position": {
					"lat": 49.58826699999999,
					"lng": 34.551417000000015
				}
			}
		},
		{
			"id": 21,
			"text": "Хмельницький",
			"markerInfo": {
				"title": "Антикорупційний штаб Хмельницького",
				"person": "Євген Кремінь, керівник",
				"phone": "063-516-55-61",
				"address": "Хмельницький, вул. Чікалтана, 54"
			},
			"markerOptions": {
				"position": {
					"lat": 49.422983,
					"lng": 26.98713299999997
				}
			}
		},
		{
			"id": 22,
			"text": "Чернігів",
			"markerInfo": {
				"title": "Антикорупційний штаб Чернігова",
				"person": "Ірина Бух, керівник",
				"phone": "067-784-16-51",
				"address": "Чернігів, вул. Іванківська, 82"
			},
			"markerOptions": {
				"position": {
					"lat": 51.49819999999999,
					"lng": 31.289350000000013
				}
			}
		},
		{
			"id": 23,
			"text": "Рівне",
			"markerInfo": {
				"title": "Антикорупційний штаб Рівного",
				"person": "Сергій Клен, керівник",
				"phone": "063-454-75-56",
				"address": "Рівне, вул. Підлісна, 5"
			},
			"markerOptions": {
				"position": {
					"lat": 47.9123,
					"lng": 33.45154500000001
				}
			}
		},
		{
			"id": 24,
			"text": "Кременчук",
			"markerInfo": {
				"title": "Антикорупційний штаб Кременчука",
				"person": "Ярослава Павлюченко, керівник",
				"phone": "067-347-87-48",
				"address": "Кременчук, вул. Шаровська, 74"
			},
			"markerOptions": {
				"position": {
					"lat": 49.065783,
					"lng": 33.410033
				}
			}
		}
	]
}